City,Latitude,Longitude,Max Temperature (F),Humidity (%),Cloudiness (%),Wind Speed (m/s),Country,Date
isafjordur,66.0755,-23.124,46.92,81,26,0.11,IS,1689818357
san antonio de pale,-1.4014,5.6325,73.92,83,100,12.15,GQ,1689818357
margaret river,-33.95,115.0667,58.48,65,84,13.85,AU,1689818358
port-aux-francais,-49.35,70.2167,37.51,99,100,32.66,TF,1689818358
blackmans bay,-43.0167,147.3167,49.73,69,100,17.49,AU,1689818359
adamstown,-25.066,-130.1015,72.5,80,100,24.4,PN,1689818359
pandan,14.0453,124.1694,83.57,76,100,5.5,PH,1689818359
grytviken,-54.2811,-36.5092,26.08,79,15,11.61,GS,1689818072
thunder bay,48.4001,-89.3168,57.11,94,100,6.91,CA,1689818357
kiunga,-6.1219,141.2906,84.72,61,71,4.12,PG,1689818360
vilhena,-12.7406,-60.1458,69.4,51,1,2.08,BR,1689818360
guayaramerin,-10.8368,-65.3614,73.71,61,31,2.95,BO,1689818361
ushuaia,-54.8,-68.3,35.26,64,0,3.44,AR,1689818305
albany,42.6001,-73.9662,66.07,88,7,3.8,US,1689818067
severo-yeniseyskiy,60.3725,93.0408,71.01,42,97,1.99,RU,1689818362
sorong,-0.8833,131.25,83.55,72,91,9.4,ID,1689818362
awjilah,29.1081,21.2869,81.43,30,0,9.33,LY,1689818362
ribeirao da ilha,-27.6993,-48.5322,60.44,75,100,2.3,BR,1689818363
olonkinbyen,70.9221,-8.7187,40.66,93,42,8.32,SJ,1689818363
mananjary,-21.2167,48.3333,65.79,92,15,3.69,MG,1689818363
tralee,52.2704,-9.7026,50.9,89,31,2.44,IE,1689818364
haiku-pauwela,20.9219,-156.3051,79.84,83,75,25.32,US,1689818364
talnakh,69.4865,88.3972,56.21,79,100,10.63,RU,1689818433
puerto natales,-51.7236,-72.4875,33.37,95,100,2.26,CL,1689818475
gisborne,-38.6533,178.0042,59.14,62,29,5.86,NZ,1689818477
utrik,11.2278,169.8474,80.69,86,100,23.31,MH,1689818479
longyearbyen,78.2186,15.6401,51.64,66,0,2.3,SJ,1689818481
waitangi,-43.9535,-176.5597,53.82,87,100,8.01,NZ,1689818483
chaumont,48.1167,5.1333,52.38,79,63,1.03,FR,1689818485
tual,-5.6667,132.75,79.45,80,10,19.64,ID,1689818487
college,64.8569,-147.8028,73.76,70,100,6.91,US,1689818490
tarko-sale,64.9225,77.785,69.93,75,98,7.83,RU,1689818492
ta`u,-14.2336,-169.5144,79.54,77,100,23.87,AS,1689818494
belmonte,-15.8631,-38.8828,75.38,65,97,10.6,BR,1689818496
ipoh,4.5841,101.0829,76.93,88,20,3.44,MY,1689818498
puerto santa,-8.9906,-78.6456,69.22,82,75,7.31,PE,1689818475
eydhafushi,5.1033,73.0708,82.94,75,99,12.66,MV,1689818502
thompson,55.7435,-97.8558,71.76,53,40,14.97,CA,1689818503
el granada,37.5027,-122.4694,60.31,83,100,17.27,US,1689818505
sarandi,-23.4436,-51.8739,62.15,82,0,17.27,BR,1689818351
concepcion,-36.827,-73.0498,55.2,100,100,13.8,CL,1689818421
nemuro,43.3236,145.575,59.32,92,68,7.23,JP,1689818511
lazaro cardenas,17.9583,-102.2,83.75,80,99,5.88,MX,1689818512
ar ruways,24.1103,52.7306,89.69,64,31,8.08,AE,1689818514
sitka,57.0531,-135.33,57.34,83,100,0.74,US,1689818516
petropavlovsk-kamchatsky,53.0452,158.6483,59.59,82,75,13.42,RU,1689818518
kailua-kona,19.6406,-155.9956,85.75,79,98,5.01,US,1689818520
jamestown,42.097,-79.2353,64.85,63,0,0.0,US,1689818522
xilin hot,43.9667,116.0333,81.86,41,26,7.14,CN,1689818524
'ohonua,66.4167,112.4,66.45,55,97,9.51,RU,1689818514
udachny,4.6167,-61.1333,66.81,91,40,2.17,VE,1689818528
santa elena de uairen,37.7167,-25.4333,66.61,87,100,1.48,PT,1689818530
vila franca do campo,67.6713,53.087,59.45,76,90,14.97,RU,1689818532
nar'yan-mar,44.6689,-90.1718,71.56,68,0,6.91,US,1689818534
marshfield,61.0042,69.0019,68.11,77,75,4.47,RU,1689818536
khanty-mansiysk,24.2049,23.2857,82.11,23,0,8.48,LY,1689818538
tranovaho,50.2581,-119.2691,91.33,21,0,2.3,CA,1689818466
at taj,40.0845,21.4274,72.61,47,0,3.36,GR,1689818542
vernon,37.947,15.3677,83.12,40,0,9.73,IT,1689818544
grevena,20.4607,45.5779,89.85,11,98,5.53,SA,1689818546
santa teresa di riva,57.79,-152.4072,54.91,94,100,3.44,US,1689818548
as sulayyil,1.1667,108.9667,80.55,81,100,4.9,ID,1689818549
kodiak,39.1834,-84.5333,75.16,87,75,4.61,US,1689818551
pemangkat,-33.918,25.5701,46.69,93,40,5.75,ZA,1689818553
hamilton,11.5853,122.7511,83.14,73,73,6.31,PH,1689818555
port elizabeth,-19.6833,63.4167,74.34,60,0,22.41,MU,1689818557
taiohae,32.8817,13.3506,83.5,50,0,8.5,LY,1689818559
roxas,52.9306,158.4028,60.26,88,96,6.6,RU,1689818561
port mathurin,15.1355,145.701,87.66,100,15,8.99,MP,1689818563
tagiura,71.6872,128.8694,53.62,53,67,14.03,RU,1689818564
vilyuchinsk,13.2167,-59.5167,81.21,89,40,11.5,BB,1689818566
saipan,53.1406,140.73,89.46,37,50,3.71,RU,1689818568
tiksi,-42.7826,147.0587,50.92,58,100,11.48,AU,1689818570
bathsheba,50.1186,-5.5371,54.28,80,34,7.85,GB,1689818572
nikolayevsk-on-amure,29.0788,-13.7081,72.48,73,40,16.11,ES,1689818574
new norfolk,19.5933,-154.9731,80.6,91,61,1.01,US,1689818575
penzance,7.3167,38.0833,58.1,93,52,6.11,ET,1689818358
tinajo,38.7333,-27.0667,70.05,88,20,4.07,PT,1689818579
hawaiian paradise park,69.2551,33.3362,51.21,93,100,17.43,RU,1689818581
k'olito,-9.0763,143.2092,79.95,68,98,12.37,PG,1689818583
praia da vitoria,-42.6128,-73.8092,52.12,97,100,5.75,CL,1689818585
gadzhiyevo,64.8,-147.5333,73.81,60,75,4.61,US,1689818587
daru,38.2061,67.1986,80.51,30,0,1.21,UZ,1689818589
chonchi,-2.0226,147.2712,84.58,67,18,10.18,PG,1689818591
badger,-0.9,-89.6,77.23,82,49,11.03,EC,1689818593
hayma',13.8292,20.8324,76.73,65,100,10.54,TD,1689818595
boysun,-7.2312,12.8666,70.54,86,94,3.18,AO,1689818597
lorengau,-13.2816,-176.1745,81.63,80,100,12.64,WF,1689818599
puerto baquerizo moreno,53.5739,142.9478,61.11,82,98,12.84,RU,1689818600
abeche,-23.1333,150.7333,71.38,60,43,13.91,AU,1689818602
n'zeto,11.1635,166.8941,83.37,80,100,15.97,MH,1689818600
mata-utu,63.7506,-68.5145,38.7,100,100,4.61,CA,1689818530
okha,-10.1606,32.6335,52.97,84,25,2.53,ZM,1689818608
yeppoon,-21.2078,-159.775,71.65,56,20,10.36,CK,1689818610
rongelap,39.15,-0.4333,80.4,85,3,2.84,ES,1689818612
iqaluit,64.5667,143.2,78.58,36,97,3.44,RU,1689818614
isoka,-25.3,45.4833,63.99,97,11,4.47,MG,1689818597
avarua,31.1667,97.2333,49.66,61,33,5.44,CN,1689818617
alzira,17.997,-76.7936,83.57,77,20,19.57,JM,1689818410
ust-nera,-37.0676,-12.3116,55.71,77,72,21.81,SH,1689818579
tsiombe,28.017,-97.5169,84.96,78,0,15.99,US,1689818619
qamdo,68.7098,-52.8699,39.94,99,100,10.16,GL,1689818625
tobi village,-21.3393,55.4781,69.44,64,20,9.22,RE,1689818627
kingston,62.7084,56.1964,62.26,87,83,9.6,RU,1689818629
edinburgh of the seven seas,-46.5619,169.4708,44.94,60,10,9.48,NZ,1689818630
san patricio,64.75,177.4833,64.9,63,40,13.42,RU,1689818632
aasiaat,69.2167,-51.1,50.02,71,100,0.0,GL,1689818634
saint-pierre,65.6835,-18.0878,42.73,87,100,3.44,IS,1689818552
troitsko-pechorsk,56.8167,70.6107,65.46,84,56,2.73,RU,1689818638
papatowai,13.8584,120.124,82.92,76,61,6.87,PH,1689818640
anadyr,-33.5906,26.891,52.45,73,73,10.63,ZA,1689818641
ilulissat,-36.2333,149.1333,51.75,24,100,8.5,AU,1689818643
akureyri,62.456,-114.3525,79.32,34,75,8.05,CA,1689818591
vikulovo,1.5995,11.5793,67.78,99,100,3.58,GA,1689818647
lubang,52.2667,79.1667,80.85,40,28,7.85,RU,1689818649
port alfred,12.65,54.0333,76.87,81,100,24.76,YE,1689818651
cooma,38.5167,-28.7,71.78,86,100,1.01,PT,1689818574
yellowknife,-1.195,-46.02,76.03,89,9,3.67,BR,1689818580
oyem,7.4515,151.8468,83.71,74,54,6.24,FM,1689818610
klyuchi,-8.5421,-172.5159,83.28,78,74,14.2,TK,1689818658
hadibu,15.4167,77.8833,75.45,80,100,18.88,IN,1689818660
ribeira grande,43.765,69.1814,76.8,32,0,3.87,KZ,1689818661
carutapera,-0.7393,-90.3518,78.55,95,32,5.01,EC,1689818664
weno,63.7553,121.6247,70.52,56,38,7.02,RU,1689818666
atafu village,-19.2333,17.7167,58.08,19,0,7.18,NA,1689818668
dhone,-23.9631,-46.3919,64.98,26,100,1.99,BR,1689818533
chulakkurgan,60.8953,131.9608,76.86,49,0,5.97,RU,1689818672
minas de matahambre,-35.2268,173.9474,59.92,87,100,7.0,NZ,1689818641
puerto ayora,15.1603,33.1397,86.04,48,93,15.41,SD,1689818675
vilyuysk,25.5198,90.2201,81.09,80,98,6.15,IN,1689818654
tsumeb,-15.2261,-59.3353,66.63,63,0,3.42,BR,1689818679
sao vicente,26.2456,50.6542,94.98,43,0,4.61,BH,1689818681
amga,40.5982,-124.1573,60.28,91,100,10.36,US,1689818683
kerikeri,41.8167,140.65,70.18,83,75,12.66,JP,1689818684
wad rawah,5.3505,48.5268,75.83,85,23,20.38,SO,1689818686
tura,48.8002,-79.1996,58.95,72,100,1.07,CA,1689818688
pontes e lacerda,-11.1361,-77.1933,70.34,58,4,1.03,PE,1689818690
al hadd,53.9606,105.8817,70.88,35,23,5.32,RU,1689818692
fortuna,70.0744,29.7487,46.56,93,40,18.41,NO,1689818693
kamiiso,0.1333,117.5,81.12,83,100,6.17,ID,1689818695
hobyo,67.4667,78.7,61.74,89,100,13.49,RU,1689818697
la sarre,22.0669,-159.378,78.42,84,100,19.57,US,1689818581
sayan,-22.9661,-42.0278,67.21,82,100,18.77,BR,1689818650
kachug,54.868,-1.6985,48.54,92,0,6.91,GB,1689818702
vadso,62.7161,129.6658,60.55,66,100,6.85,RU,1689818704
bontang,66.0217,12.6316,43.32,92,95,8.7,NO,1689818706
tazovsky,-14.3,-178.1667,80.94,81,95,12.01,WF,1689818708
wailua homesteads,-37.6678,-63.5302,45.77,56,81,17.2,AR,1689818710
arraial do cabo,-14.9003,50.2788,73.67,83,100,9.04,MG,1689818712
stanley,64.1835,-51.7216,48.81,87,100,16.11,GL,1689818714
namtsy,38.0833,138.4333,75.63,84,30,5.75,JP,1689818716
sandnessjoen,68.0546,166.4372,62.98,70,100,5.01,RU,1689818718
leava,21.4612,-71.1419,83.07,82,32,22.79,TC,1689818720
guatrache,-3.4167,114.85,86.09,74,0,3.44,ID,1689818722
antalaha,-3.8004,102.2655,75.42,91,100,3.71,ID,1689818724
nuuk,52.0833,4.8833,57.27,93,75,1.01,NL,1689818726
ryotsu-minato,13.4626,144.6933,87.08,72,40,12.66,GU,1689818727
bilibino,27.0892,119.6453,85.5,79,100,1.63,CN,1689818729
cockburn town,-6.0675,-49.9022,73.4,49,45,1.32,BR,1689818469
martapura,54.7682,-101.865,72.81,45,76,6.64,CA,1689818733
bengkulu,48.9332,-55.6649,75.51,85,82,11.63,CA,1689818735
woerden,34.6391,-120.4579,63.52,88,100,9.22,US,1689818592
piti village,51.0736,132.5642,86.99,40,23,4.29,RU,1689818739
fu'an,37.0997,79.9269,91.6,12,100,14.65,CN,1689818740
parauapebas,-53.15,-70.9167,34.9,90,100,6.76,CL,1689818554
flin flon,-33.0153,27.9116,52.99,74,81,13.53,ZA,1689818744
grand falls-windsor,15.3338,-15.4766,84.74,68,12,10.94,SN,1689818746
lompoc,8.9322,165.7642,82.96,75,100,3.09,MH,1689818748
novyy urgal,13.5928,-89.8275,83.91,72,29,7.72,SV,1689818750
hotan,-17.75,-149.55,74.88,80,100,22.06,PF,1689818751
punta arenas,-15.2119,-75.1103,56.35,83,16,8.1,PE,1689818753
east london,21.0667,36.3167,85.96,19,73,4.9,SD,1689818755
ndibene dahra,-46.4,168.35,45.79,63,37,8.7,NZ,1689818757
ujae,-30.1811,-50.2056,58.64,73,66,16.6,BR,1689818759
acajutla,47.5649,-52.7093,73.02,94,75,13.8,CA,1689818615
papao,44.3683,-100.351,79.72,41,0,12.66,US,1689818762
minas de marcona,-12.2787,49.2917,75.54,75,50,13.38,MG,1689818764
gebeit,5.4112,100.3354,79.75,89,20,3.44,MY,1689818758
invercargill,8.8908,126.3033,84.97,67,35,2.26,PH,1689818768
cidreira,-33.295,-66.3356,47.77,56,97,6.76,AR,1689818487
st. john's,22.8779,116.067,84.49,77,100,3.74,CN,1689818772
pierre,67.5833,63.95,66.4,74,100,5.44,RU,1689818774
antsiranana,26.3369,127.8719,86.04,67,75,6.91,JP,1689818776
georgetown,-34.5322,20.0403,45.68,76,58,1.95,ZA,1689818579
aras-asan,16.08,97.5675,76.35,92,100,9.37,MM,1689818779
san luis,54.2697,-8.4694,50.59,88,6,5.44,IE,1689818781
jiazi,47.5833,1.3333,52.09,80,88,5.14,FR,1689818783
vorgashor,-34.9667,-54.95,48.78,88,0,10.0,UY,1689818780
katsuren-haebaru,-37.8333,140.7667,47.68,94,100,9.26,AU,1689818614
bredasdorp,36.6833,139.9667,87.91,57,10,1.99,JP,1689818789
kyaikkami,17.9,77.55,70.48,94,100,16.11,IN,1689818791
sligo,62.4723,6.1549,52.2,93,100,11.5,NO,1689818793
blois,4.1363,96.1285,75.07,90,100,2.86,ID,1689818794
punta del este,32.7562,-91.8724,83.82,82,0,0.0,US,1689818797
mount gambier,-4.9667,23.45,68.54,41,16,1.57,CD,1689818798
ahau,-15.1961,12.1522,60.04,88,0,5.61,AO,1689818800
ujiie,11.4562,31.2285,73.8,76,99,4.45,SD,1689818802
bidar,62.7833,148.1667,74.53,45,79,6.13,RU,1689818804
alesund,-26.6481,15.1594,54.01,61,44,14.81,NA,1689818622
meulaboh,66.9395,-53.6735,44.67,97,100,9.64,GL,1689818808
bargara,-18.65,-173.9833,77.68,65,75,14.97,TO,1689818809
bastrop,-13.7,-76.2167,68.05,77,100,4.61,PE,1689818811
lusambo,11.3474,162.3373,83.35,76,80,11.14,MH,1689818813
namibe,7.5264,-12.505,75.65,92,100,5.21,SL,1689818815
abu jibeha,-12.1568,96.8225,78.78,73,40,16.11,CC,1689818811
susuman,49.4169,-82.4331,68.0,64,75,5.75,CA,1689818526
luderitz,42.2506,-75.833,65.37,85,2,3.29,US,1689818820
sisimiut,-0.1567,-50.3867,75.52,91,8,4.79,BR,1689818822
neiafu,19.1667,30.4833,91.83,12,3,7.54,SD,1689818824
pisco,28.629,-17.9293,71.15,94,100,16.11,ES,1689818826
enewetak,-34.7333,135.8667,57.02,56,6,23.15,AU,1689818828
bonthe,22.8909,-109.9124,88.3,60,40,16.11,MX,1689818599
west island,31.5,92.0,47.37,61,1,5.17,CN,1689818832
kapuskasing,39.05,-27.9833,68.97,74,100,5.44,PT,1689818834
broome,37.8333,12.6667,84.15,34,0,2.08,IT,1689818836
afua,60.7167,-46.0333,44.58,96,100,3.24,GL,1689818838
dongola,41.7057,-70.2286,73.49,78,100,4.61,US,1689818840
tazacorte,-35.3333,-72.4167,56.37,76,100,2.37,CL,1689818651
port lincoln,56.2499,-120.8529,72.12,56,29,5.73,CA,1689818843
cabo san lucas,51.9833,116.5833,75.51,36,1,2.57,RU,1689818845
nagqu,-15.0725,-57.1811,70.56,58,1,2.01,BR,1689818847
lagoa,51.6667,75.3667,80.42,31,15,9.66,KZ,1689818849
trapani,45.1171,124.8568,85.17,59,76,5.48,CN,1689818851
qaqortoq,-16.0999,167.4164,76.12,85,100,7.2,VU,1689818853
yarmouth,-20.3297,-40.2925,70.95,93,100,15.99,BR,1689818855
constitucion,-37.6167,-73.65,55.4,93,100,15.93,CL,1689818856
fort st. john,27.5492,90.7525,69.28,71,32,2.17,BT,1689818858
nerchinsk,38.5,48.6667,59.7,82,0,2.04,AZ,1689818860
barra do bugres,-41.8697,-73.8203,51.24,95,100,9.17,CL,1689818583
ekibastuz,63.1792,14.6357,48.65,37,40,9.22,SE,1689818864
songyuan,28.3667,129.4833,82.62,73,99,11.25,JP,1689818865
lakatoro,46.8161,134.26,85.1,57,0,2.98,RU,1689818867
vila velha,-8.8785,147.7407,83.23,62,99,4.47,PG,1689818869
lebu,27.9769,-114.0611,69.75,79,3,16.73,MX,1689818871
jakar,2.6708,72.8944,82.45,74,78,7.14,MV,1689818873
astara,12.1167,-61.6167,82.45,83,100,15.08,GD,1689818778
ancud,62.708,40.2916,59.27,97,100,2.46,RU,1689818876
ostersund,41.2646,69.2163,78.75,34,0,6.91,UZ,1689818878
naze,11.2833,-15.8333,80.87,82,41,12.24,GW,1689818880
bikin,63.9331,-20.9971,53.04,77,83,6.98,IS,1689818607
kokoda,40.8334,-74.5329,70.16,93,0,0.0,US,1689818839
guerrero negro,49.7833,-92.7503,59.29,100,100,6.91,CA,1689818677
kudahuvadhoo,46.3163,38.9586,62.51,67,0,3.06,RU,1689818887
grenville,-31.4043,-62.3063,45.64,66,91,8.75,AR,1689818889
plesetsk,57.5067,50.5011,57.07,96,100,10.29,RU,1689818891
taskent,-8.103,156.8419,81.01,82,37,13.78,SB,1689818893
bubaque,39.0993,-76.8483,76.84,85,40,4.61,US,1689818786
selfoss,-23.3224,150.5393,70.32,49,40,12.66,AU,1689818897
morris,61.5927,21.8685,51.58,93,0,2.3,FI,1689818899
dryden,21.8525,-78.1169,79.57,86,27,8.39,CU,1689818901
novominskaya,60.7161,-135.0538,74.01,30,93,11.99,CA,1689818903
devoto,55.1001,-105.2842,67.33,56,92,7.31,CA,1689818905
nema,-20.3,-66.9333,40.73,21,12,4.18,BO,1689818906
gizo,17.9257,19.1043,90.12,28,100,12.15,TD,1689818909
laurel,13.5361,144.8886,86.36,69,40,12.66,GU,1689818911
norman gardens,22.0752,-159.319,79.9,83,100,19.57,US,1689818912
ayod,60.7253,114.9278,56.86,96,100,7.4,RU,1689818914
noormarkku,-35.35,150.4667,61.63,24,100,7.83,AU,1689818916
esmeralda,27.8006,-97.3964,84.78,86,20,17.27,US,1689818858
whitehorse,41.3712,-73.414,71.56,81,0,0.0,US,1689818920
la ronge,-1.7667,33.9667,60.08,51,57,4.21,TZ,1689818922
colchani,-11.6725,-61.1936,73.83,49,9,3.44,BR,1689818924
renk,30.1171,40.3893,85.95,14,0,10.83,SA,1689818926
faya-largeau,-32.1667,152.5167,62.29,54,3,1.74,AU,1689818928
yigo village,31.3974,-102.3501,93.67,21,7,19.44,US,1689818930
kapa'a,35.5641,-121.0808,61.7,88,27,7.0,US,1689818932
lensk,19.9078,109.6858,86.2,73,86,11.95,CN,1689818934
ulladulla,31.9493,5.325,93.27,14,0,0.0,DZ,1689818788
corpus christi,-34.4187,19.2345,49.48,70,12,10.25,ZA,1689818938
bethel,-28.7667,114.6,54.01,76,75,5.75,AU,1689818840
butiama,10.6333,-8.6833,72.66,95,100,4.56,GN,1689818941
pimenta bueno,40.4536,124.0717,82.99,68,0,4.61,CN,1689818944
suwayr,7.7029,27.9953,68.94,97,100,2.86,SS,1689818947
forster,-23.8597,35.3472,62.24,91,0,6.2,MZ,1689818949
crane,57.3431,83.9261,67.3,61,77,9.55,RU,1689818951
cambria,-18.3333,-59.75,62.69,61,0,1.45,BO,1689818952
cable beach,-16.7333,-151.4333,77.65,73,100,22.24,PF,1689818954
lincheng,45.5549,-0.8967,61.03,87,38,6.55,FR,1689818956
anibare,30.3858,-88.6117,83.25,87,0,0.0,US,1689818958
ouargla,-15.0342,40.7358,74.68,82,5,11.79,MZ,1689818960
hermanus,18.2,-73.75,81.23,84,69,7.49,HT,1689818962
geraldton,19.6228,-155.9522,81.66,81,40,10.36,US,1689818964
mandiana,13.7667,-2.0667,85.46,58,9,14.32,BF,1689818966
fengcheng,0.5412,123.0595,86.95,62,25,5.91,ID,1689818968
wau,26.1247,127.6694,85.84,81,40,6.91,JP,1689818811
maxixe,69.4058,86.1778,56.62,88,99,6.82,RU,1689818919
krivosheino,53.2316,7.461,56.59,90,17,6.04,DE,1689818959
robore,-4.2714,-81.2147,70.52,83,1,22.21,PE,1689818975
uturoa,-8.0983,112.1681,81.0,54,14,11.32,ID,1689818977
la passe,62.244,-6.814,45.07,83,100,20.62,FO,1689818979
gautier,42.7297,133.0839,68.45,90,100,2.93,RU,1689818980
ilha de mocambique,-8.7386,24.9906,61.66,38,4,4.27,CD,1689818982
les cayes,51.3813,1.3862,58.69,93,5,1.01,GB,1689818853
holualoa,50.9333,6.95,59.7,93,6,3.58,DE,1689818986
tanrake village,59.0556,80.8572,67.42,59,100,11.34,RU,1689818926
titao,38.2906,109.7494,80.64,41,99,15.55,CN,1689818989
gorontalo,51.0374,21.0713,63.16,79,99,10.65,PL,1689818991
itoman,23.6139,58.5922,87.82,73,80,6.62,OM,1689818703
dudinka,52.9463,-66.9114,52.9,80,44,11.59,CA,1689818995
leer,-19.0595,-169.9187,73.42,64,54,21.99,NU,1689818997
el alto,45.7453,-87.0646,63.84,100,75,12.66,US,1689818999
blitar,-14.6667,-52.35,75.07,41,90,1.99,BR,1689819001
fuglafjordur,69.1989,33.4478,51.51,94,100,16.73,RU,1689819003
vrangel',2.7603,46.3222,76.37,85,81,18.03,SO,1689819005
kamina,-25.25,152.8167,67.46,55,0,4.79,AU,1689819007
margate,-17.5833,-71.3333,60.93,85,39,1.5,PE,1689819009
colonia,-33.0117,17.9442,47.44,72,0,12.62,ZA,1689819010
kargasok,63.4106,48.6872,64.13,91,27,6.22,RU,1689819012
yulinshi,29.4422,-90.2992,85.91,74,0,0.0,US,1689819014
starachowice,66.6572,66.4183,68.9,80,95,4.29,RU,1689819016
muscat,22.785,5.5228,75.11,14,0,3.44,DZ,1689819018
alotau,-21.3585,55.7679,69.39,88,41,12.17,RE,1689819020
labrador city,53.5237,-2.4935,54.43,92,8,3.04,GB,1689819022
alofi,-17.8,177.4167,82.4,65,75,11.5,FJ,1689818912
escanaba,22.8333,104.9833,83.59,85,100,0.83,VN,1689819026
nova xavantina,27.6711,-8.1474,89.31,12,0,5.77,DZ,1689819028
polyarnyy,67.6803,53.1512,59.41,76,84,14.9,RU,1689819029
cadale,62.6667,135.6,76.55,49,50,1.83,RU,1689819031
point vernon,37.2989,62.3597,78.57,28,0,9.37,TM,1689819033
pacocha,33.2205,50.315,67.15,43,0,7.25,IR,1689819035
saldanha,-38.2667,141.9667,46.11,85,100,19.8,AU,1689818889
usogorsk,11.65,7.2333,72.05,84,73,2.84,NG,1689819039
galliano,18.4167,-64.6167,86.04,74,20,16.11,VG,1689819040
labytnangi,45.41,79.9186,81.32,33,57,1.9,KZ,1689819042
tamanrasset,59.5833,151.2833,86.14,74,7,7.63,RU,1689819044
saint-philippe,43.7683,59.0214,79.74,36,65,8.84,UZ,1689819046
atherton,19.3667,-81.4167,84.29,82,20,9.22,KY,1689819048
nadi,-21.55,167.8833,72.34,75,70,17.27,NC,1689819050
ha giang,-17.75,-149.2833,73.27,81,100,25.52,PF,1689819051
tindouf,21.3167,103.9,73.29,96,100,1.34,VN,1689819053
iskateley,54.4877,-0.615,52.11,90,2,6.22,GB,1689819022
khandyga,-0.8917,119.8707,88.52,63,8,0.78,ID,1689819057
yoloten,35.2442,129.2139,77.13,85,100,5.35,KR,1689819059
khvansar,39.9203,66.8611,75.96,27,0,9.78,UZ,1689819060
codrington,4.8699,-2.2405,76.3,91,73,9.15,GH,1689819062
bardai,-33.6667,-54.2,46.78,88,100,8.66,UY,1689819064
road town,34.5667,76.1,61.45,58,96,0.76,IN,1689819066
sarkand,-25.0319,46.9987,65.84,75,0,3.15,MG,1689819068
ola,21.7,104.8667,81.95,88,76,3.06,VN,1689819070
muynoq,40.6576,-73.5832,73.35,84,0,4.61,US,1689819072
west bay,-12.0167,17.4833,56.19,48,0,2.95,AO,1689819074
tadine,33.9997,119.8308,77.49,89,100,1.19,CN,1689819075
afaahiti,18.05,30.95,89.51,27,4,8.97,SD,1689819077
son la,67.5,64.0,66.29,76,100,5.5,RU,1689819079
whitby,-5.5667,-46.7422,73.18,53,3,0.69,BR,1689818869
palu,-0.9492,100.3543,78.85,84,85,2.57,ID,1689819083
kijang,-21.5667,21.7833,47.62,33,0,8.7,BW,1689818924
chelak,26.5479,101.7054,71.11,88,100,1.01,CN,1689819086
axim,42.2411,-88.3162,71.62,66,100,3.0,US,1689818962
vingt cinq,21.6477,-157.9253,79.34,80,100,5.01,US,1689819090
lascano,-25.4,-70.4833,63.82,68,100,2.51,CL,1689819092
kargil,-35.1114,150.629,61.86,30,97,7.56,AU,1689819093
tolanaro,37.6138,-122.4869,58.17,88,20,17.27,US,1689819095
yen bai,55.3422,-131.6461,59.47,94,100,4.61,US,1689819097
freeport,34.5023,-97.9578,89.19,61,0,8.05,US,1689819099
camacupa,55.2834,-114.769,66.54,66,46,4.32,CA,1689819014
dongkan,54.9411,41.3953,52.09,90,7,10.4,RU,1689819103
ad dabbah,69.9689,23.2717,47.19,84,100,10.0,NO,1689819104
vorkuta,-2.65,10.0,70.72,92,100,5.32,GA,1689819106
amarante do maranhao,37.8,-25.5833,65.71,88,20,3.44,PT,1689819109
padang,-45.8742,170.5036,48.79,60,79,3.0,NZ,1689818947
ghanzi,59.3936,35.9371,55.26,85,100,8.7,RU,1689819112
dadukou,14.8667,-24.7167,73.24,84,100,5.7,CV,1689819114
crystal lake,18.5564,-11.4271,84.9,53,100,16.35,MR,1689819116
la'ie,-24.8667,113.6333,58.78,48,0,20.58,AU,1689819050
taltal,-1.85,106.1333,80.8,84,100,11.3,ID,1689819120
sanctuary point,6.2355,80.0538,80.94,85,100,13.58,LK,1689819121
pacifica,26.5667,74.8667,85.41,70,67,7.54,IN,1689818896
ketchikan,32.65,-17.0667,68.83,78,17,5.82,PT,1689819125
duncan,65.2653,-14.3948,33.71,100,40,2.3,IS,1689819127
slave lake,21.4571,110.7659,85.23,77,81,13.91,CN,1689819129
kasimov,-8.8368,13.2343,69.87,76,100,6.82,AO,1689819131
alta,-41.3427,-69.5448,37.42,94,39,3.85,AR,1689819132
gamba,-6.7221,146.9847,82.63,68,100,6.46,PG,1689819134
rabo de peixe,55.7231,84.8861,69.66,53,100,8.57,RU,1689819136
dunedin,-6.9558,111.71,81.82,48,5,13.44,ID,1689819138
babayevo,-31.6229,29.5448,55.06,69,99,13.89,ZA,1689819140
nova sintra,60.1247,64.7758,64.58,85,100,7.11,RU,1689819142
tidjikja,-0.0583,-51.1817,82.58,89,20,10.36,BR,1689818858
carnarvon,48.9723,140.2878,73.92,69,28,6.24,RU,1689819145
sungailiat,33.7333,135.9833,83.12,77,24,4.97,JP,1689819147
ambalangoda,45.1667,10.7833,70.07,87,8,5.99,IT,1689819149
kishangarh,-20.7377,116.8463,71.17,45,10,19.93,AU,1689819151
ribeira brava,-8.112,115.0882,80.38,58,5,1.86,ID,1689819153
egilsstadir,29.5,78.1333,84.99,66,84,2.01,IN,1689819155
wuchuan,-8.0089,-34.8553,80.33,65,0,13.8,BR,1689818876
luanda,-39.9504,-71.0694,41.74,97,79,4.52,AR,1689819158
ingeniero jacobacci,37.9407,22.9573,79.9,41,0,3.33,GR,1689819160
cumaribo,53.1408,-6.0631,54.82,86,10,8.14,IE,1689819162
lae,29.1212,71.7446,95.54,48,80,5.21,PK,1689819164
yurga,63.2842,118.3319,70.61,63,21,4.68,RU,1689819165
mundri,-4.9667,39.8333,74.03,83,12,11.03,TZ,1689819167
port saint john's,24.8875,-105.0728,76.75,25,2,7.36,MX,1689819169
uray,30.2947,-81.3931,83.79,79,40,9.22,US,1689819106
santana,38.96,17.0933,88.18,53,0,3.91,IT,1689819173
sovetskaya gavan',-33.6971,-53.4616,51.39,81,100,9.46,UY,1689819174
shingu,17.8868,-77.5902,79.65,73,78,10.07,JM,1689819176
mantua,5.8833,-55.0833,78.03,91,10,7.85,SR,1689819178
karratha,-31.4707,19.776,37.18,69,2,16.89,ZA,1689819180
singaraja,39.1606,20.9853,76.64,39,0,4.41,GR,1689819182
mandawar,-8.5243,179.1942,89.6,79,20,2.3,TV,1689819184
olinda,7.0419,134.2556,84.7,79,65,25.32,PW,1689819186
junin de los andes,51.8336,108.2703,73.69,30,0,1.68,RU,1689819187
corinto,-22.3667,-59.8167,54.59,44,20,2.64,PY,1689819189
greystones,-23.7781,-45.3581,65.55,91,100,11.92,BR,1689819191
yazman,58.6978,81.4825,65.86,63,100,10.36,RU,1689819193
nyurba,42.9333,89.1667,103.14,10,60,3.6,CN,1689819195
micheweni,-28.7323,24.7623,28.09,80,0,6.91,ZA,1689819197
nuevo ideal,27.1935,2.4607,92.19,13,0,11.99,DZ,1689819198
jacksonville beach,-7.4706,-34.8086,75.79,77,9,15.55,BR,1689818911
isola di capo rizzuto,60.4183,-151.29,55.42,94,100,9.22,US,1689819202
chui,35.139,-79.006,77.47,92,40,0.0,US,1689819204
bull savanna,49.2413,-124.8028,86.4,36,0,10.0,CA,1689819206
nieuw amsterdam,13.2658,144.6691,86.16,81,100,14.18,GU,1689819208
calvinia,39.6284,-84.1594,73.9,85,0,8.05,US,1689819041
arta,43.3333,68.25,81.66,26,0,4.03,KZ,1689819211
funafuti,20.931,-17.0347,73.38,83,17,13.8,MR,1689819213
kloulklubed,-22.1089,-56.5211,62.33,81,0,2.8,BR,1689818950
zaigrayevo,-21.6989,-57.8825,59.74,66,0,3.74,BR,1689819055
colonia menno,-42.8333,147.35,51.58,62,75,20.71,AU,1689819219
ilhabela,-34.5667,146.4,53.1,44,100,11.68,AU,1689819220
parabel',14.1951,43.3152,86.68,62,68,7.52,YE,1689819222
turpan,18.3328,120.6177,85.95,79,20,4.61,PH,1689819224
kimberley,59.3833,143.3,68.67,63,74,9.73,RU,1689819226
i-n-salah,20.2719,81.4931,77.97,87,97,3.96,IN,1689819228
pitimbu,48.0333,-3.7,52.48,97,100,3.85,FR,1689819230
am djarass,32.75,-0.5833,80.73,14,1,1.01,DZ,1689819231
kalifornsky,-36.3132,-57.6792,42.66,80,98,10.63,AR,1689819233
fort bragg,-11.0925,-77.6267,67.19,80,45,7.31,PE,1689819235
port alberni,-30.944,-61.5615,45.05,70,99,7.72,AR,1689819237
merizo village,32.7179,-100.9176,98.78,13,0,10.36,US,1689819239
centerville,16.0215,80.9181,82.94,73,100,12.3,IN,1689819241
turkestan,11.2126,99.5117,79.11,78,100,7.47,TH,1689819242
nouadhibou,15.7333,-96.4667,78.17,82,45,4.7,MX,1689819244
bela vista,61.8288,16.0913,53.2,81,100,3.47,SE,1689819246
porto murtinho,41.2835,-70.0995,69.76,89,75,6.91,US,1689819248
lindisfarne,9.3337,122.8637,85.98,77,98,3.83,PH,1689819251
leeton,4.9167,-52.2667,77.04,94,0,0.0,GF,1689819253
zabid,-22.9575,14.5053,53.15,85,0,6.06,NA,1689819255
pasuquin,47.5166,-52.7813,71.62,94,40,16.11,CA,1689819257
okhotsk,-8.8978,-35.1478,75.29,77,56,11.97,BR,1689819259
kanker,4.375,-7.7169,76.87,87,99,11.5,LR,1689819260
scaer,-29.9533,-71.3436,56.93,100,0,2.3,CL,1689819105
ain sefra,-5.041,18.8162,71.73,32,10,0.47,CD,1689819264
dolores,-3.1167,29.4,71.29,51,100,1.59,BI,1689819266
caleta de carquin,-9.0467,-77.8114,63.34,71,23,7.87,PE,1689819268
sunchales,4.4148,114.0089,86.14,74,40,8.05,MY,1689819270
snyder,-23.7,133.8833,71.15,28,4,9.22,AU,1689819272
avanigadda,10.5333,76.05,79.75,88,77,12.08,IN,1689819273
bang saphan,27.9167,96.1667,87.35,55,99,1.12,IN,1689819275
san pedro pochutla,16.6915,33.4341,91.17,38,30,16.22,SD,1689819277
ljusdal,-11.2061,13.8437,67.59,85,73,5.39,AO,1689819279
nantucket,53.3168,-60.3315,66.51,88,75,4.61,CA,1689819281
santa catalina,52.5249,111.5418,63.32,46,0,3.6,RU,1689819283
remire-montjoly,43.4833,16.5833,77.83,63,10,6.89,HR,1689819284
walvis bay,56.2501,-117.286,71.91,64,75,2.3,CA,1689819275
yangor,-31.8976,26.8753,38.43,81,99,4.7,ZA,1689819288
mount pearl,63.1115,7.732,50.65,93,100,3.44,NO,1689819290
sao jose da coroa grande,23.9167,-106.9,83.12,77,15,5.32,MX,1689819292
harper,67.4667,86.5833,67.78,77,78,7.61,RU,1689819294
coquimbo,29.1614,16.139,80.17,47,0,3.36,LY,1689819295
kikwit,39.8333,97.7333,72.73,25,18,6.55,CN,1689819298
bubanza,18.035,-102.3266,82.85,82,100,5.5,MX,1689819299
caras,-37.65,145.5167,54.19,66,100,3.0,AU,1689819301
miri,31.8111,121.655,75.83,97,100,14.05,CN,1689819304
alice springs,-10.1667,123.5833,84.78,65,40,14.97,ID,1689819306
chetwayi,-2.2,113.8333,84.76,67,27,4.36,ID,1689819308
tezu,13.3886,144.6585,86.83,73,40,12.66,GU,1689819310
shendi,35.4764,24.0092,75.6,69,0,3.44,GR,1689819312
sumbe,47.7833,67.7667,68.58,52,0,11.18,KZ,1689819313
happy valley-goose bay,41.6504,59.9164,71.55,49,0,0.0,TM,1689819315
sosnovo-ozerskoye,-1.367,38.0106,57.49,96,85,3.24,KE,1689819317
podstrana,68.799,16.5293,51.01,100,100,13.0,NO,1689819319
peace river,-12.8231,-42.7306,67.66,45,5,5.61,BR,1689819321
queenstown,56.0603,45.8633,55.53,84,32,14.61,RU,1689819323
kristiansund,38.3892,69.3227,80.31,29,0,3.67,TJ,1689819325
la cruz,48.9634,32.2349,64.72,48,99,1.7,UA,1689819327
igarka,-37.3781,-70.2709,47.8,58,100,5.21,AR,1689819329
waddan,-5.5502,150.1429,88.97,54,36,4.76,PG,1689819331
olgii,63.0128,112.4714,67.46,53,100,4.88,RU,1689819333
laojunmiao,-14.6585,17.691,48.76,50,0,2.01,AO,1689819335
la mira,-20.7333,139.5,78.57,31,40,3.44,AU,1689819336
healesville,-11.3847,43.2844,76.82,74,2,8.68,KM,1689819338
ain beni mathar,52.6292,70.4169,66.2,67,24,10.63,KZ,1689819340
huilong,21.9789,-159.3672,79.63,79,100,19.57,US,1689819343
omuthiya,-15.7667,128.7333,82.38,28,6,13.8,AU,1689819065
kupang,44.0787,-80.2041,61.72,87,100,1.72,CA,1689819256
palangkaraya,43.0395,41.2621,59.95,91,59,3.15,GE,1689819348
agat village,-17.6167,177.4667,82.26,65,75,11.5,FJ,1689819350
mournies,-3.7227,-38.5247,80.73,78,0,9.22,BR,1689819290
zhezqazghan,0.8,127.4,83.01,74,4,8.32,ID,1689819354
tagta,62.5353,113.9611,71.24,46,98,7.0,RU,1689819355
kitui,36.7642,-2.6148,82.62,85,2,0.69,ES,1689819358
harstad,-28.8667,153.5667,65.79,45,0,0.92,AU,1689819359
boquira,40.5156,81.2636,92.89,13,16,6.98,CN,1689819362
vorotynets,51.8911,29.9552,55.24,73,9,4.47,BY,1689819364
kazalinsk,15.3652,119.9582,84.92,72,13,4.21,PH,1689819366
norak,39.0717,141.7167,73.8,84,72,8.81,JP,1689819368
oleksandrivka,18.5667,-74.4167,81.39,82,66,5.23,HT,1689819370
chos malal,30.25,81.1667,54.84,73,98,3.65,CN,1689819372
kimbe,25.2631,63.471,81.99,84,100,4.97,PK,1689819374
chernyshevskiy,-28.783,32.0377,57.85,86,100,12.53,ZA,1689819376
menongue,11.6667,92.75,84.24,79,100,11.5,IN,1689819378
mount isa,28.2211,61.2158,80.11,23,99,3.36,IR,1689819379
mitsamiouli,19.6969,-14.4164,88.16,45,81,14.32,MR,1689819381
makinsk,-10.4217,105.6791,78.48,69,40,17.27,CX,1689819383
lihue,-28.5708,-70.7581,64.4,28,100,1.03,CL,1689819385
kununurra,45.8297,20.4653,69.08,81,99,6.38,RS,1689819387
shelburne,11.5636,41.4394,92.88,30,97,6.15,ET,1689819389
maisi,-21.2196,55.3151,65.95,68,0,9.22,RE,1689819391
lautoka,24.9243,-80.6278,84.99,83,100,5.99,US,1689819393
fortaleza,62.0511,-7.1939,45.43,93,100,21.85,FO,1689819394
ternate,35.7565,-83.9705,71.76,91,40,4.61,US,1689819375
mirnyy,68.906,27.0288,52.0,95,100,12.08,FI,1689819398
hihifo,40.8108,69.1986,77.23,31,0,4.25,UZ,1689819400
roquetas de mar,20.5022,-10.0711,92.39,29,79,13.38,MR,1689819402
ballina,47.7417,96.8444,69.4,35,98,1.52,MN,1689819404
aral,-18.3667,21.85,51.75,36,0,4.07,BW,1689819406
khoyniki,14.5333,20.9167,78.91,58,100,12.08,TD,1689819407
amungan,39.4816,62.9137,79.93,27,0,12.44,TM,1689819409
puerto san carlos,19.75,84.4333,82.36,83,100,0.85,IN,1689819411
ofunato,-20.0628,57.5131,74.52,73,66,13.67,MU,1689819414
dame-marie,64.0049,-22.5624,52.23,93,75,6.91,IS,1689819415
burang,11.7,92.7167,84.29,79,100,11.5,IN,1689819417
pasni,34.8095,-87.6495,75.81,85,0,4.61,US,1689819419
richards bay,65.85,74.4859,71.55,72,47,9.73,RU,1689819421
port blair,44.1833,28.65,74.08,74,0,11.36,RO,1689819423
khash,50.8552,0.5729,57.83,43,3,5.17,GB,1689819425
akjoujt,30.7333,131.0,82.96,89,75,12.66,JP,1689819427
flying fish cove,9.3333,9.45,65.25,89,100,4.92,NG,1689819428
vallenar,44.7,127.2,80.91,73,9,7.16,CN,1689819430
kikinda,12.7857,-85.1227,75.29,96,100,9.71,NI,1689819432
asaita,54.7804,-127.1743,79.12,34,75,6.91,CA,1689819312
piton saint-leu,13.0833,109.3,87.91,61,91,10.0,VN,1689819436
islamorada,49.7,-112.8186,74.8,41,20,10.36,CA,1689819392
midvagur,39.8667,-88.9668,78.4,89,0,8.05,US,1689819268
maryville,52.2453,117.7093,75.74,31,0,5.7,RU,1689819441
inari,-0.5,-78.5667,48.74,90,60,7.65,EC,1689819443
buka,52.5367,103.8864,66.92,43,91,8.34,RU,1689819445
karamay,-10.4544,161.9205,84.0,80,59,8.5,SB,1689819447
adrar,51.45,13.5333,58.55,93,31,8.01,DE,1689819449
uliastay,36.6167,101.7667,62.35,61,85,3.18,CN,1689819451
shakawe,-10.7337,14.98,58.05,54,2,1.68,AO,1689819453
biltine,65.7461,-19.6394,43.03,84,17,1.01,IS,1689819454
seydi,-4.2658,15.2832,74.53,60,53,5.12,CG,1689819456
sorada,23.4833,80.1167,87.13,73,82,2.82,IN,1689819458
yirol,11.0297,20.2827,71.2,95,100,3.18,TD,1689819460
checker hall,40.166,-8.8768,66.67,94,16,9.78,PT,1689819462
pointe aux piments,-34.0033,24.7314,45.88,84,73,1.57,ZA,1689819463
keflavik,-15.8372,-54.3892,73.9,45,98,0.36,BR,1689819465
bamboo flat,0.5333,72.9333,82.89,75,100,13.42,MV,1689819467
east florence,-21.3667,55.6167,68.0,85,18,10.54,RE,1689819469
pangody,-34.6833,150.8667,61.68,48,80,1.99,AU,1689819471
constantia,57.5058,-1.7981,54.0,87,48,12.33,GB,1689819473
hastings,28.8947,64.4101,88.99,22,100,2.84,PK,1689819474
nishinoomote,36.9169,31.0989,79.05,28,0,7.74,TR,1689819476
pankshin,39.6875,125.0828,81.05,71,0,5.46,KP,1689819478
shanhecun,-22.2763,166.4572,73.0,99,76,12.59,NC,1689819365
